"Дата заявки";"Пультовый номер";"Адрес";"Округ";"Наименование";"Техник/дата";"таблица";"ссылка";"latitude";"longitude"
"28.04.2025";"22091";" Москва г, б-р Ходынский, д. 2";"ЦСКА";"Ресторан БарДак ЦСКА ";"Кадамшоев 26.05.2025";"демонтаж";"https://durnovcev2000.kaiten.ru/42603234";"55.7886442";"37.5388767"
"23.05.2025";"139293";"Москва г, 1-й Хорошёвский проезд,, д. 14, к. 1";"Беговая";"(Бар БарБариста)";"Кадамшоев 26.05.2025";"демонтаж";"https://durnovcev2000.kaiten.ru/49331263";"55.7749809";"37.5453859"
"26.05.2025";"138243";" Московская обл, г.о. Люберцы, г Люберцы, ул. , Авиаконструктора Миля, д. 1";"Люберув";" Швейная Мастерская ";"Терехов 26.05.2025";"демонтаж";"https://durnovcev2000.kaiten.ru/38332303";"55.6817392";"37.8572248"
"23.05.2025";"-";"МО, Первомайская ул., 30, Лыткарино";"Лыткарино";"Чайхана Барашек";"Терехов 26.05.2025";"обследования";"-";"55.5852837";"37.90199"
"23.05.2025";"-";" Москва, ул. Нижняя Масловка д.20/ 2";"Петровский парк";"Аптека";"николаев На 26.05.2025";"обследования";"-";"55.7919067";"37.5706594"
"23.05.2025";"-";"г. Москва, ул. Планетная д. 27";"Аэропорт";"Аптека";"николаев На 26.05.2025";"обследования";"-";"55.80202209999999";"37.5454549"
"23.05.2025";"-";"Москва Проспект Мира 119 строение 501";"Ботанический сад";"Пиццерия";"Шатохин 26.05.2025";"обследования";"-";"55.8330639";"37.6219526"
"23.05.2025";"-";"Москва Садовническая улица, 25";"Новокузнецкая";"косметология";"Новгородцев 26.05.2025";"обследования";"-";"55.7464558";"37.6343529"
"23.05.2025";"-";" г.Москва, ул. Профсоюзная, д. 142, корп.1, стр.1,";"Тёплый Стан";"Гастроном на Профсоюзной ООО ""ДП - 1";"Аракелян 26.05.2025";"обследования";"-";"55.625528";"37.509222"
"23.05.2025";"-";"Москва, Севастопольский пр-т, 11Е Торговый центр Капитолий";"Крымская";"Gt Fit";"Новгородцев На 26.05.2025";"обследования";"-";"55.6876335";"37.6040219"
"23.05.2025";"-";" Москва, улица Куусинена, д. 1 ";"Полежаевская";"Кофейня ДРИНКИТ";"насим На 26.05.2025";"обследования";"-";"55.7784013";"37.5165515"
"26.05.2025";"-";"г. Люберцы Ул Маресьева 6 к2";"Люберцы";"Зоо магазин";"Новгородцев 26.05.2025";"обследования";"-";"55.709825";"37.93748"
"23.05.2025";"-";"Москва, ул. 1905 года, 4";"Улица 1905 года";"ООО ОП ""АКС ГАРД-НН"" банк Казани";"Кадамшоев 26.05.2025";"заявки менеджеров";"https://durnovcev2000.kaiten.ru/32082191";"55.7649728";"37.561744"
"21.05.2025";"139226";"г. Москва, ул. Профсоюзная, д. 104";"Воронцовская";"скупка золота ""Клевер""";"Новгородцев 26.05.2025";"ремонт фзч";"-";"55.6607107";"37.5442386"
"21.05.2025";"1679";"Москва г, вн.тер.г. муниципальный округ Марфино, ул Большая Марфинская, д. 1, к. 4";"Фонвизинская";"(Медцентр Дент-Орион)";"Шатохин 26.05.2025";"ремонт фзч";"-";"55.8314214";"37.5928139"
"23.05.2025";"-";"Московская обл, г Раменское, ул Гурьева, д. 11/2";"раменское ";"Магазин «Суши Wok";"Терехов 26.05.2025";"ремонт фзч";"https://durnovcev2000.kaiten.ru/33164944";"55.5668599";"38.2365607"
"23.05.2025";"-";"Московская область, Лобня, улица Краснополянская дом 27";"Лобня";"Пиццерия ТРЭНТО";"шатохин На 26.05.2025";"ремонт фзч";"https://durnovcev2000.kaiten.ru/48220158";"56.02374709999999";"37.4213639"
"23.05.2025";"-";"Московская обл., Люберцы г.о., дп. Красково, ул. Чехова, ст.16Б";"Люберцы";" Магазин автозапчастей Дизель";"Терехов 26.05.2025";"ремонт фзч";"-";"55.6633953";"38.0008033"
"23.05.2025";"-";"Московская обл, г.о. Раменский, г Раменское, ул Чугунова, д. 41";"раменское ";"Магазин «Суши Wok";"Терехов 26.05.2025";"ремонт фзч";"-";"55.5668166";"38.2256455"
"26.05.2025";"-";"Москва, Ходынский бульвар, 20А";"ЦСКА";"(Клиника «ABIClINIC»)";"Николаев 26.05.2025";"ремонт фзч";"-";"55.79112680000001";"37.5243755"
"28.03.2025";"1414";" Москва г, вн.тер.г. муниципальный округ Савеловский, ул Верхняя Масловка, д. 2";"Петровский парк";"(Кафе Garden Kitchen)";"Новгородцев 26.05.2025";"ремонт фзч";"https://durnovcev2000.kaiten.ru/33140273";"55.7920878";"37.5691475"
"23.05.2025";"51527";"Москва ул Изюмская 57 корп 1";"Улица Скобелевская";"Магазин Продукты ООО Милиса";"Аракелян 26.05.2025";"заявки евромост";"https://durnovcev2000.kaiten.ru/33175840";"55.54363710000001";"37.5640268"
"23.05.2025";"1185";"Москва ул Автозаводская 4 (55.710002, 37.662722)";"Тульская";"Банк Казани отделения банка ООО ЧОП Технологии безопасности";"Новгородцев 26.05.2025";"заявки евромост";"https://durnovcev2000.kaiten.ru/29602654";"55.70440079999999";"37.63464080000001"
"23.05.2025";"90891";"МО г Лыткарино ул Советская 12";"-";"Ломбард ООО ЛК Драгоценности Урала";"Терехов 26.05.2025";"заявки евромост";"https://durnovcev2000.kaiten.ru/33679771";"55.5811649";"37.9040136"
"26.05.2025";"139222";"Москва ул Печорская 7 (55.863323, 37.668327)";"Бабушкинская";"Пункт выдачи Валдберрис боксберри Яндекс Маркет ИП Тюленова Е В";"Шатохин 26.05.2025";"заявки евромост";"https://durnovcev2000.kaiten.ru/";"55.8634401";"37.6681288"
"26.05.2025";"310221";"г.Одинцово ул. Молодежная д.18, подъезд №3., пом. 8 ., 1 этаж";"Одинцово";"Офис ИП ""Маринич Ю.В.""";"Даниелян 26.05.2025";"заявки евромост";"https://durnovcev2000.kaiten.ru/33160003";"55.67386";"37.260246"
"26.05.2025";"90927";"МО Раменский район с Никитское Новорязанское шоссе 14";"Раменское";"Частный дом Колосов О В";"Терехов 26.05.2025";"заявки евромост";"https://durnovcev2000.kaiten.ru/33262060";"55.301987";"38.4633848"
"26.05.2025";"137852";"Москва 41 й км МКАД ТОГК Славянский мир павильон В 4/3 4";"Алма-Атинская";"Склад ООО Меркурий";"Даниелян 26.05.2025";"заявки евромост";"https://durnovcev2000.kaiten.ru/35665475";"55.644667";"37.8213621"
"26.05.2025";"133885";"Москва Боровское шоссе 2к 4";"Говорово";"Кофейня";"Аракелян 26.05.2025";"заявки евромост";"https://durnovcev2000.kaiten.ru/33153176";"55.6618402";"37.4213623"
"26.05.2025";"310100";"Одинцовский район п Дубки ул Дружбы 7 кв 8 4 этаж";"-";"(5 кат) Квартира Сажин В.Д.";"Даниелян 26.05.2025";"заявки евромост";"https://durnovcev2000.kaiten.ru/33159221";"55.65808";"37.199701"
"26.05.2025";"138845";"МО г Орехово Зуево ул Урицкого 49 Б (55.809636, 38.967417)";"-";"Аптека Планета Здоровья ";"Терехов 26.05.2025";"заявки евромост";"https://durnovcev2000.kaiten.ru/44068044";"55.8095128";"38.967417"
"26.05.2025";"132776";"Москва ул Автозаводская 23 Б к 2";"Тульская";"Пекарня Буханка ИП Лапаева В С";"Новгородцев 26.05.2025";"заявки евромост";"https://durnovcev2000.kaiten.ru/32562661";"55.7042954";"37.63453310000001"
"26.05.2025";"132488";"МО Раменский район д Чулково 129/3";"Раменское";"Пункт приема металла ИП Большаков Т А";"Терехов 26.05.2025";"заявки евромост";"https://durnovcev2000.kaiten.ru/";"55.54853869999999";"38.0617338"
