"Дата заявки";"Пультовый номер";"Адрес";"Округ";"Наименование";"Техник/дата";"таблица";"ссылка";"latitude";"longitude"
"28.05.2025";"134939";" Москва г, Поляны ул, дом № 5А, строение 1";"Улица Скобелевская";"-";"Дурновцев 28.05.2025";"демонтаж";"https://durnovcev2000.kaiten.ru/29602505";"55.5556822";"37.5554622"
"28.05.2025";"137220";"МО, г. Павловский Посад, ул. Привокзальная , д.19 к.2. ";"Павловский Посад";"Аптека";"Терехов 28.05.2025";"демонтаж";"https://durnovcev2000.kaiten.ru/39458148";"55.7770328";"38.6743573"
"23.05.2025";"-";"Москва, ул. Амурская, дом 1, корп. 1";"Локомотив";" Косметологическая Клиника";"Шатохин 28.05.2025";"обследования";"-";"55.805795";"37.75081350000001"
"26.05.2025";"-";"Москва, п. Сосенское, б-р Веласкеса, дом 1, корп. 3, ";"Сосенское ";"Магазин ""Москвичка Маркет""";"Аракелян 28.05.2025";"обследования";"-";"-";"-"
"26.05.2025";"-";"МО, г. Балашиха, ул. Промышленная, д. 46, стр. 1.";"Балашиха";"ПЭК";"Терехов 28.05.2025";"обследования";"-";"55.7198891";"38.0218021"
"27.05.2025";"-";"г. Москва, ул. Люблинская, 72к3";"Братиславская";"коммерческое помещение";"Новгородцев 28.05.2025";"обследования";"-";"55.66493149999999";"37.7352513"
"27.05.2025";"-";"Москва​ , Улица Красная Пресня, 36 ст1  ";"Улица 1905 года";"Сэн Дзю";"Кадамшоев 28.05.2025";"обследования";"-";"55.7625653";"37.5668614"
"27.05.2025";"-";"г. Москва, Бекудниковский бул., д.8 к.4";"Верхние Лихоборы";"Салон красоты";"Швтохин 28.05.2025";"обследования";"-";"55.8614305";"37.5640545"
"12.05.2025";"138985";"Московская область г.Чехов Вишневый б-рд 1/3";"Чехов";"АКОБА бар ""высокий градус""";"Дурновцев 28.05.2025";"заявки менеджеров";"https://durnovcev2000.kaiten.ru/48725049";"55.1453184";"37.4846721"
"23.05.2025";"1405";" Московская обл, г.о. Богородский, г Электроугли, ул Парковая, д. 14";"Электроугли";"Парк кафе";"Терехов 28.05.2025";"заявки менеджеров";"-";"55.7137943";"38.2154438"
"26.05.2025";"137189";"Москва, Братиславская, 14";"Братиславская";"компьютерный клуб";"Новгородцев 28.05.2025";"заявки менеджеров";"https://durnovcev2000.kaiten.ru/32562023";"55.6590934";"37.7550945"
"27.05.2025";"1729";" Москвы ОКЦ ЗАО Москва Очаковское шоссе 21 к 2";"Аминьевская";"Библиотека ГБУК г";"Аракелян 28.05.2025";"заявки менеджеров";"https://durnovcev2000.kaiten.ru/34002574";"55.69059499999999";"37.451757"
"27.05.2025";"93337";" Балашиха Красковская 88";"Балашиха";" Нотариус Семенов Николай Александрович,";"Терехов 28.05.2025";"заявки менеджеров";"https://durnovcev2000.kaiten.ru/33160796";"55.716485";"37.90738959999999"
"27.05.2025";"137609";"Москва г, вн.тер.г. муниципальный округ Басманный, ул Бауманская, д. 6, стр. 2, офис 806";"Бауманская";"офис";"Николаев 28.05.2025";"заявки менеджеров";"https://durnovcev2000.kaiten.ru/50617417";"55.77611839999999";"37.6753264"
"26.05.2025";"-";"Москва, Солянский проезд, 6/2с1";"Китай-город";"“PIMS”";"Шатохин 28.05.2025";"ремонт фзч";"-";"55.7540363";"37.6368548"
"26.05.2025";"-";"г. Москва, ул. Авиационная, вл. 30";"Авиамоторная";" Религиозная организация «Подворье Патриарха Московского и всея Руси храма святителя Николая Мирликийского в Щукине г.Москвы Русской Прав";"Николаев 28.05.2025";"ремонт фзч";"-";"55.7449692";"37.7208572"
"27.05.2025";"-";" Москва г, вн.тер.г. муниципальный округ Москворечье-Сабурово, ул Котляковская, д. 4, стр. 5";"Варшавская";" (ОФИС)";"Новгородцев 28.05.2025";"ремонт фзч";"-";"55.6411787";"37.6323867"
"27.05.2025";"-";"Москва г, вн.тер.г. муниципальный округ Москворечье-Сабурово, ул Котляковская, д. 4, стр. 5";"Варшавская";"СКЛАД)";"Новгородцев 28.05.2025";"ремонт фзч";"-";"55.6411787";"37.6323867"
"27.05.2025";"-";"г. Москва, ул. Лобнентская, д. 13, к.4";"Яхромская";"склад бокс № 15";"Шатохин 28.05.2025";"ремонт фзч";"-";"55.888355";"37.533663"
"27.05.2025";"-";"Москва г, вн.тер.г. муниципальный округ Ново-Переделкино, ш. Боровское, д. 36";"Новопеределкино";" Вкусная шаверма «просто Вася";"Аракелян 28.05.2025";"ремонт фзч";"-";"55.64007609999999";"37.3543336"
"27.05.2025";"-";"г. Москва, Ломоносовский проспект, 29, корп. 3";"Ломоносовский проспект";"Частная школа «Талантвилль»";"Аракелян 28.05.2025";"ремонт фзч";"-";"55.70426149999999";"37.5140864"
"29.04.2025";"8424";"Москва Красностуденческий проезд 9 кв 3 код подъезда 3к8369";"Тимирязевская";"Квартира Леванова Н В";"Шатохин 28.05.2025";"заявки евромост";"https://durnovcev2000.kaiten.ru/33175206";"55.8243664";"37.565047"
"12.05.2025";"39609";"МО Ступинский район с Семеновское СНТ Виктория 2 участов 84";"-";"Коттедж Обрезумова М Л";"Дурновцев 28.05.2025";"заявки евромост";"https://durnovcev2000.kaiten.ru/33175159";"55.0594024";"37.7617239"
"12.05.2025";"138644";"МО г Солнечногорск снт Спортстроевец 13 телефон для проезда через ворота в СНТ 89361340847";"-";"Гараж Беседка Наумов Р А";"Дурновцев 28.05.2025";"заявки евромост";"https://durnovcev2000.kaiten.ru/42501061";"56.19091299999999";"36.9721914"
"13.05.2025";"1689";"МО Ленинский район д Таболово 1 А (рядом Видное)";"-";"Склад бытовой техники ИП Костюк Я А";"Дурновцев 28.05.2025";"заявки евромост";"https://durnovcev2000.kaiten.ru/33163196";"55.550246";"37.7450029"
"20.05.2025";"138768";"Москва ул Судостроительная 1 пом 1 (55.679402, 37.666531)";"Коломенская";"Пекарня ИП Горбунова Е А";"Новгородцев 28.05.2025";"заявки евромост";"https://durnovcev2000.kaiten.ru/46273215";"55.6789842";"37.6676287"
"23.05.2025";"138576";"МО г Видное ул Центральная 12 А";"-";"Амбулатория пост охраны ГБУЗ МО Центральная клиническая психиатрическая больница имени Ф А";"Дурновцев 28.05.2025";"заявки евромост";"https://durnovcev2000.kaiten.ru/37761850";"55.559908";"37.726975"
"23.05.2025";"136097";"МО г Люберцы проспект Гагарина 3/8";"Люберцы";"Офис склад Оф Вайт ООО Оф Вайт";"Терехов 28.05.2025";"заявки евромост";"https://durnovcev2000.kaiten.ru/32562233";"55.6867551";"37.9067789"
"23.05.2025";"93367";"МО г Люберцы Комсомольский проспект 19/1 кв 64 этаж 17";"Люберцы";"Квартира Зенченко";"Терехов 28.05.2025";"заявки евромост";"https://durnovcev2000.kaiten.ru/33163317";"55.6949817";"37.9091903"
"23.05.2025";"134483";"Москва шоссе Энтузиастов 31 стр 39";"Шоссе Энтузиастов";"АПТЕКА";"Николаев 28.05.2025";"заявки евромост";"https://durnovcev2000.kaiten.ru/33175793";"55.7589955";"37.75103010000001"
"23.05.2025";"53676";"МО г Пущино ул Балковская 7";"-";"АЗС Тамик Энерджи ИП Шайхутдинов Д А";"Дурновцев 28.05.2025";"заявки евромост";"https://durnovcev2000.kaiten.ru/33163362";"54.8323855";"37.6210556"
"26.05.2025";"138274";"МО г Видное бульвар Зеленые аллеи 12 этаж 1 помещ 686";"Видное";"Офис ООО МИКРОН МСК";"Дурновцев 28.05.2025";"заявки евромост";"https://durnovcev2000.kaiten.ru/39127029";"55.56163309999999";"37.7046449"
"26.05.2025";"138116";"Москва в границах железнодорожной станции Фили";"Филёвский парк";"Салон связи Теле2 ООО Эльбрус";"Кадамшоев 28.05.2025";"заявки евромост";"https://durnovcev2000.kaiten.ru/37482944";"55.7438374";"37.4867888"
"26.05.2025";"138255";"МО г Подольск 1й Деловой проезд 11";"Подольск";"Склад цветов ИП Василенко О В";"Дурновцев 28.05.2025";"заявки евромост";"https://durnovcev2000.kaiten.ru/39161807";"55.4155285";"37.552031"
"26.05.2025";"134323";"МО го Ленинский рп Лопатино ул Сухановская 1 строение 1";"ЛОПАТИНО ";"Ломбард ООО Ломбард Рубин";"Дурновцев 28.05.2025";"заявки евромост";"https://durnovcev2000.kaiten.ru/";"55.5360235";"37.6388956"
"26.05.2025";"132638";"Москва ул Авиаконструктора Петлякова 13 к 1 этаж 1";"Пыхтино";"Стоматология Сталь Дент ООО Сталь Дент";"Аракелян 28.05.2025";"заявки евромост";"https://durnovcev2000.kaiten.ru/33153516";"55.62063";"37.3050147"
"26.05.2025";"131039";"Москва пер Троилинский 4/7";"Смоленская";"Магазин профессиональной косметики Галерея Красоты ООО Косметик Групп";"Кадамшоев 28.05.2025";"заявки евромост";"https://durnovcev2000.kaiten.ru/29792787";"55.74836519999999";"37.584443"
"26.05.2025";"7822";"МО Ленинский район д Суханово тер ЖК Суханово Парк помещение 58/2";"суханово парк";"Дуплекс Малышева Т Е";"Дурновцев 28.05.2025";"заявки евромост";"https://durnovcev2000.kaiten.ru/33158611";"55.54361729999999";"37.69561119999999"
"27.05.2025";"135154 ";"Москва ул Черняховского 6";"Аэропорт";"Магазин Табак Мартиросян А А ";"Кадамшоев 28.05.2025";"заявки евромост";"-";"55.8038706";"37.5348578"
"27.05.2025";"133253 ";"Москва ул Плещеева 1";"Бибирево";"Жилищно строительный кооператив РЕЙС ЖСК РЕЙС";"Шатохин 28.05.2025";"заявки евромост";"https://durnovcev2000.kaiten.ru/33143225";"55.8854047";"37.6069927"
"27.05.2025";"136548";"Москва п Сосенкское ул Николо Ховансая 7/1 ТРЦ Сиеста";"Прокшино";"Магазин Фамилия ООО Максима Групп";"Аракелян 28.05.2025";"заявки евромост";"https://durnovcev2000.kaiten.ru/33162036";"55.5870889";"37.45657509999999"
"27.05.2025";"133708";"Москва ул Бориса Пастернака 17 ";"Рассказовка";"Вкусно Хаус ИП Хан С И";"Аракелян 28.05.2025";"заявки евромост";"https://durnovcev2000.kaiten.ru/32511411";"55.6383103";"37.3256328"
"28.05.2025";"91460";"МО г Люберцы проспект Октябрьский 259 Б";"-";"Ангар ООО Энергия";"Терехов 28.05.2025";"заявки евромост";"https://durnovcev2000.kaiten.ru/33140050";"-";"-"
"28.05.2025";"134165";"Москва Хорошевское шоссе 27";"Хорошёвская";"Магазин CP ООО РЕ ТРЭЙДИНГ";"Кадамшоев 28.05.2025";"заявки евромост";"https://durnovcev2000.kaiten.ru/29793160";"55.7765548";"37.5240288"
"28.05.2025";"133918";"Москва ул Прянишникова 19 А строение 13";"Лихоборы";"Хостел Сити ИП Хаджимурадов А А";"Шатохин 28.05.2025";"заявки евромост";"https://durnovcev2000.kaiten.ru/33164950";"55.837951";"37.548825"
"28.05.2025";"134112";"Москва Складочная 1 стр 9";"Дмитровская";"Офис компании Роботизированые Технологии ООО КБРТ";"Шатохин 28.05.2025";"-";"https://durnovcev2000.kaiten.ru/29793196";"55.803383";"37.593883"
"23.05.2025";"90891";"МО г Лыткарино ул Советская 12";"-";"Ломбард ООО ЛК Драгоценности Урала";"Терехов 28.05.2025";"-";"https://durnovcev2000.kaiten.ru/33679771";"55.5811649";"37.9040136"
