"Дата заявки";"Пультовый номер";"Адрес";"Округ";"Наименование";"Техник/дата";"таблица";"ссылка";"latitude";"longitude"
"29.04.2025";"9517";"Москва Профсоюзная д.3";"Академическая";"Снеговик";"Миляев 30.04.2025";"демонтаж";"https://durnovcev2000.kaiten.ru/33162542";"55.685802";"37.5723939"
"29.04.2025";"135108";"Москва г, Петропавловский пер, дом № 4-6, строение 8";"Китай-город";" Церковная Лавка";"Шатохин 30.04.2025";"демонтаж";"https://durnovcev2000.kaiten.ru/29590589";"55.7512896";"37.6434178"
"29.04.2025";"93298";"Москва г, Внутригородская территория муниципальный округ Академический, Шверника ул, дом 3";"Академическая";"коммерция";"Шатохин 30.04.2025";"демонтаж";"https://durnovcev2000.kaiten.ru/31406084";"55.6942023";"37.5817609"
"29.04.2025";"138891";"Москва г, Каховка ул, дом № 25";"Зюзино";"Магазин Табак и незамороженные продукты";"Николаев 30.04.2025";"демонтаж";"https://durnovcev2000.kaiten.ru/";"55.6551364";"37.5734857"
"28.04.2025";"-";"г. Москва, ул. Буженинова, д. 22";"Преображенская площадь";"Кладовка ""СКЛАДНО""";"Новгородцев 30.04.2025";"обследования";"-";"55.7904231";"37.7090454"
"28.04.2025";"-";"г.Москва, ул Бажова 8";"Ростокино";"магазин Добрынинский";"Новгородцев 30.04.2025";"обследования";"-";"55.8321864";"37.6611675"
"29.04.2025";"-";"МО, г.о. Балашиха, село Новый Милет, ул. Парковая, 2А";"Балашиха";"(СКЛАД)";"Ковалев 30.04.2025";"обследования";"-";"55.79850589999999";"37.93953330000001"
"29.04.2025";"-";"г. Москва, ул. 6-я Радиальная, 3к9 ";"Царицыно";"ЛОМБАРД";"Николаев 30.04.2025";"обследования";"-";"55.6044348";"37.6641226"
"29.04.2025";"-";"г. Москва, ул. Маршала Катукова, д.10";"Строгино";"ЛОМБАРД";"Кадамшоев 30.04.2025";"обследования";"-";"55.8094245";"37.4035088"
"30.04.2025";"-";"г. Москва, ул. Очаковская, д. 9А, ";"Говорово";"Коммерческое помещение";"гагик На 30.04.2025";"обследования";"-";"55.6731095";"37.4109978"
"28.04.2025";"137996";" Москва, ул. Бауманская 36";"Бауманская";"офисное здание";"Новгородцев 30.04.2025";"заявки менеджеров";"https://durnovcev2000.kaiten.ru/33164908";"55.77189120000001";"37.6785501"
"30.04.2025";"91316";"Лосино-Петровское пгт. Лосино-Петровское ул.Горького д.24а";"Лосино Петровское ";"МФЦ";"Ковалев 30.04.2025";"заявки менеджеров";"https://durnovcev2000.kaiten.ru/29595763";"55.8702428";"38.1940737"
"28.04.2025";"-";"Москва, Варшавское шоссе, дом 144, корп. 2, стр. 2";"Пражская";"Ветеринарная Лаборатория «ГОРВЕТЛАБ»";"Шатохин 30.04.2025";"ремонт фзч";"-";"55.60378009999999";"37.6042777"
"28.04.2025";"192219";"Москва, ВАО, район Северное Измайлово, Парковая 9-я улица, д.68, корп.7";"Щёлковская";"Дринк кофе";"Новгородцев 30.04.2025";"ремонт фзч";"https://durnovcev2000.kaiten.ru/48381555";"55.8085315";"37.7992593"
"29.04.2025";"-";" Москва г, вн.тер.г. муниципальный округ Марьино, ул Верхние Поля, д. 32, к. 1";"Люблино";"Кафе Пиплс";"Николаев 30.04.2025";"ремонт фзч";"-";"55.6668661";"37.7603614"
"28.04.2025";"1751";"МО г Красногорск бульвар Красногорский 4 к 1 (55.814750, 37.362711)";"-";"Паркинг ООО У7";"Дурновцев 30.04.2025";"заявки евромост";"https://durnovcev2000.kaiten.ru/32562918";"55.81475769999999";"37.3626663"
"28.04.2025";"90364";"Химки ул Родионова 2 корп 1 цоколь";"Химки";"Салон красоты Цирюльник ИП Черкашина О Ю";"Ковалев 30.04.2025";"заявки евромост";"https://durnovcev2000.kaiten.ru/29597499";"55.903886";"37.40397"
"29.04.2025";"137794";"Москва м о Нагатинский затон ул Корабельная 9";"Нагатинский Затон";"Магазин Алкотека ООО ГОРИЗОНТ М";"Николаев 30.04.2025";"заявки евромост";"https://durnovcev2000.kaiten.ru/35163283";"55.68458339999999";"37.6980534"
"29.04.2025";"8424";"Москва Красностуденческий проезд 9 кв 3 код подъезда 3к8369";"Тимирязевская";"Квартира Леванова Н В";"Шатохин 30.04.2025";"заявки евромост";"https://durnovcev2000.kaiten.ru/33175206";"55.8243664";"37.565047"
"30.04.2025";"1763";"МО Одинцово ул М Бирюзова 2/А (55.686487, 37.258965)";"-";"Магазин Продукты Кулинария ООО СИРИУС";"Даниелян 30.04.2025";"заявки евромост";"https://durnovcev2000.kaiten.ru/33162900";"55.6858131";"37.2598134"
"30.04.2025";"1172";"Москва ул Тверская 12 корпус 2";"Тверская";"Ломбард ООО Ломбард Платинум";"Шатохин 30.04.2025";"заявки евромост";"https://durnovcev2000.kaiten.ru/33681007";"-";"-"
"30.04.2025";"138337";"Москва ул Мастеркова 4 ТЦ Автозаводский этаж 3";"Автозаводская";"Магазин Столичный гардероб ИП Гмыря М В";"Николаев 30.04.2025";"заявки евромост";"https://durnovcev2000.kaiten.ru/40925981";"55.7085512";"37.6570807"
"30.04.2025";"151489";"Москва Сигнальнай проезд 6 А";"Владыкино";"Ломбард ООО Мой Ломбард";"Шатохин 30.04.2025";"заявки евромост";"https://durnovcev2000.kaiten.ru/33680596";"-";"-"
"30.04.2025";"139288";"Москва ул Викторенко 11 пом 10 лит эт 1 (55.795444, 37.526905)";"Аэропорт";"Стоматологическая клиника ДЖИМЭЛ ООО ЭЛИТ ДЕНТАЛ КЛИНИК";"Кадамшоев 30.04.2025";"заявки евромост";"https://durnovcev2000.kaiten.ru/49245203";"55.79566999999999";"37.5254349"
"30.04.2025";"1711";"Москва ул Дудинка 2 к 1";"Бабушкинская";"Аптека Планета Здоровья ООО Аджента";"Новгородцев 30.04.2025";"заявки евромост";"https://durnovcev2000.kaiten.ru/33159349";"55.86136";"37.688737"
"30.04.2025";"133465";"МО, г. Одинцово, Можайское шоссе, дом 165, пом. 7,";"-";"Стоматология ""Лаборатория улыбки""";"Даниелян 30.04.2025";"заявки евромост";"https://durnovcev2000.kaiten.ru/33132629";"55.68877579999999";"37.3068936"
"30.04.2025";"90102";"МО Наро Фоминский округ раб п Калининец рынок Дубки 2 пав 27";"Наро Фоминск";"Салон связи МТС ООО Эльбрус";"Даниелян 30.04.2025";"заявки евромост";"https://durnovcev2000.kaiten.ru/33159686";"55.5538603";"36.9770567"
"30.04.2025";"301004";"Одинцовский район д Немчиново ПЖСК Сетунька 31";"-";"Коттедж Пушкова О П (10266) см. Комментарий !!!";"Даниелян 30.04.2025";"заявки евромост";"https://durnovcev2000.kaiten.ru/";"55.6798976";"37.3616493"
"30.04.2025";"310160";"Новоивановское ул Агрохимиков 19 кв 10 этаж 2";"-";"Квартира Чеканова О.В ( * )";"Дурновцев 30.04.2025";"заявки евромост";"https://durnovcev2000.kaiten.ru/33175839";"55.7027404";"37.3634055"
