"Дата заявки";"Пультовый номер";"Адрес";"Округ";"Наименование";"Техник/дата";"таблица";"ссылка";"latitude";"longitude"
"30.05.2025";"-";"ул. Александры Монаховой, 94, корп. 4";"-";"Kiddy Yes Английский садик";"Аракелян 02.06.2025";"обследования";"-";"55.5426001";"37.4841513"
"30.05.2025";"-";"Москва,  улица Автозаводская,  дом 17, корпус 3, помещение 103";"Тульская";"Отель Рея";"Новгородцев 02.06.2025";"обследования";"-";"55.7037472";"37.6345937"
"30.05.2025";"-";"Москва, вн.тер.г. муниципальный округ Южнопортовый, улица Шарикоподшипниковская, дом 18, помещение 6/1 ";"Дубровка";"Отель Рея";"Новгородцев 02.06.2025";"обследования";"-";"55.7184707";"37.6741781"
"30.05.2025";"-";"Москва, вн.тер.г. муниципальный округ Даниловский, улица Автозаводская, дом 17, корпус 1, помещение 13 ";"Тульская";"Отель Рея";"Новгордцев 02.06.2025";"обследования";"-";"55.7038412";"37.634457"
"02.06.2025";"-";"МО, г. Солнечногорск, ул. Красная, влад. 2";"Солнечногорск";" Кафе ""Шашлычок""";"Дурновцев 02.06.2025";"обследования";"-";"56.1797188";"36.9913314"
"02.06.2025";"-";"г. Москва, ул. Пресненский Вал, д. 38, стр. 1";"Улица 1905 года";"Барбершоп ТОПГАН";"Кадамшоев 02.06.2025";"обследования";"-";"55.7713487";"37.5702133"
"02.06.2025";"-";"Старые Химки м-н, Химки, Московская область";"Химки";"Хлеббери";"Дурновцев 02.06.2025";"обследования";"-";"55.9036367";"37.4376652"
"02.06.2025";"-";" Московская область, Г.о. Подольск, г. Подольск, ул. Кирова, дом 4";"Подольск";"мУНИЦИПАЛЬНОЕ КАЗЕННОЕ УЧРЕЖДЕНИЕ ""УПРАВЛЕНИЕ ПО ОБЕСПЕЧЕНИЮ ДЕЯТЕЛЬНОСТИ ОРГАНОВ МЕСТНОГО САМОУПРАВЛЕНИЯ ГОРОДСКОГО ОКРУГА ПОДОЛЬСК""(МКУ ""УПРАВЛЕНИЕ ПО ОДОМС Г.О. ПОДОЛЬСК"")  (Концертный зал)- 2 этажа";"Шатохин 02.06.2025";"обследования";"-";"55.4303943";"37.5415286"
"02.06.2025";"-";"Московская область, Г.о. Подольск, мкр-н. Климовск, ул. Первомайская д.1 - 2 этажа;";"Подольск";"мУНИЦИПАЛЬНОЕ КАЗЕННОЕ УЧРЕЖДЕНИЕ ""УПРАВЛЕНИЕ ПО ОБЕСПЕЧЕНИЮ ДЕЯТЕЛЬНОСТИ ОРГАНОВ МЕСТНОГО САМОУПРАВЛЕНИЯ ГОРОДСКОГО ОКРУГА ПОДОЛЬСК""(МКУ ""УПРАВЛЕНИЕ ПО ОДОМС Г.О. ПОДОЛЬСК"")  (Концертный зал)- 2 этажа";"Шатохин 02.06.2025";"обследования";"-";"55.3582226";"37.53335209999999"
"02.06.2025";"-";"Московская область, Г.о. Подольск, г. Подольск, ул. Чистова, д. 11/8 - 2 этажа;";"Подольск";"мУНИЦИПАЛЬНОЕ КАЗЕННОЕ УЧРЕЖДЕНИЕ ""УПРАВЛЕНИЕ ПО ОБЕСПЕЧЕНИЮ ДЕЯТЕЛЬНОСТИ ОРГАНОВ МЕСТНОГО САМОУПРАВЛЕНИЯ ГОРОДСКОГО ОКРУГА ПОДОЛЬСК""(МКУ ""УПРАВЛЕНИЕ ПО ОДОМС Г.О. ПОДОЛЬСК"")  (Концертный зал)- 2 этажа";"Шатохин 02.06.2025";"обследования";"-";"55.421156";"37.5423061"
"01.04.2025";"192132";"Москва ул Вавилова 69 А";"Профсоюзная";"Детский сад Горница Узорница АНО ДОО Узорница";"Аракелян 02.06.2025";"заявки евромост";"https://durnovcev2000.kaiten.ru/42611472";"55.68103199999999";"37.551066"
"26.05.2025";"139258";"МО г Солнечногорск ул Обуховская 5 М (56.184150, 36.968629)";"Солнечногорск";"Дом Табака ИП Оганнисян А А";"Дурновцев 02.06.2025";"заявки евромост";"https://durnovcev2000.kaiten.ru/49756310";"56.184046";"36.968722"
"29.05.2025";"137489";"МО го Ленинский рп Лопатино ул Сухановская 4 стр 1";"-";"Котельная ООО Гранель Инжиниринг";"Шатохин 02.06.2025";"заявки евромост";"https://durnovcev2000.kaiten.ru/33162553";"55.536567";"37.635062"
"30.05.2025";"133587";"Солнечногорск д Льялово мкрн Морозовка 14 А";"-";"Магазин Фасоль ООО Велес Плюс";"Дурновцев 02.06.2025";"заявки евромост";"https://durnovcev2000.kaiten.ru/33166011";"56.19091299999999";"36.9721914"
"02.06.2025";"94274";"Москва Севастопольский проспект 27 корп 2";"Нагорная";"ЗАО МОФ Парижская коммуна ";"Николаев 02.06.2025";"заявки евромост";"https://durnovcev2000.kaiten.ru/";"55.676095";"37.594477"
"02.06.2025";"137578";"Москва муниципальный округ Южное Бутово ул Маршала Савицкого 26 к 1";"Улица Скобелевская";"Активатор ООО ПКФ Активатор";"Шатохин 02.06.2025";"заявки евромост";"https://durnovcev2000.kaiten.ru/33161237";"55.5041571";"37.5942737"
"02.06.2025";"91112";"Москва ул Сергея Макеева 4 пом 2 На тревогу тампера прибора не обращать внимания ( он отключен)";"Улица 1905 года";"Крафт бар ИП Ковалев А М";"Кадамшоев 02.06.2025";"заявки евромост";"https://durnovcev2000.kaiten.ru/32562476";"55.7590901";"37.5506469"
"02.06.2025";"93267";"МО Люберцы ул 8 Марта ГСК 9 ПГСК 9 гараж 332";"Люберцы";"Гараж Жукова В В (ранее 89305)";"Терехов 02.06.2025";"заявки евромост";"https://durnovcev2000.kaiten.ru/29589588";"55.7024051";"37.8853863"
"02.06.2025";"136028";"Москва Звенигородское ш 11 квартира 36 этаж 11";"Улица 1905 года";"Квартира Морозова М И";"Кадамшоев 02.06.2025";"заявки евромост";"https://durnovcev2000.kaiten.ru/33166727";"55.7633772";"37.5600284"
"02.06.2025";"136823";"Москва ул Бутырская 97";"Дмитровская";"Магазин Табачник Вапе ИП Будза С И";"Николаев 02.06.2025";"заявки евромост";"https://durnovcev2000.kaiten.ru/37094189";"55.80773";"37.5803854"
"02.06.2025";"190038";"Москва Ленинский проспект 62/1";"Университет";"ИП Буткевич Елена Ваславовна ранее 20038";"Миляев 02.06.2025";"заявки евромост";"https://durnovcev2000.kaiten.ru/33174620";"55.6951735";"37.5536721"
"02.06.2025";"137860";"Москва ул Зеленодольская 32 к 3";"Кузьминки";"Магазин ГАСТРОНОМ ООО Мовэра";"Новгородцев 02.06.2025";"заявки евромост";"https://durnovcev2000.kaiten.ru/32562364";"55.7106155";"37.7678556"
"02.06.2025";"138035";"Москва ул Красная Пресня 46 стр 1";"Улица 1905 года";"Магазин табака и курительных принадлежностей МосТабак ИП Алексеенко В И";"Кадамшоев 02.06.2025";"заявки евромост";"https://durnovcev2000.kaiten.ru/36805121";"55.76294559999999";"37.5645308"
"02.06.2025";"138904";"Москва ул 8 Текстильщиков 13 к 2 (55.704732, 37.745304)  ";"Текстильщики";"Кладовка СКЛАДНО ИП Юсубов С И";"Новгородцев 02.06.2025";"заявки евромост";"https://durnovcev2000.kaiten.ru/46484978";"55.704456";"37.744743"
"02.06.2025";"139259";"МО г Солнечногорск ул Промышленная 13 (56.174740, 36.996136)";"Солнечногорск";"Дом Табака ИП Оганнисян А А";"Дурновцев 02.06.2025";"заявки евромост";"https://durnovcev2000.kaiten.ru/49754499";"56.1750129";"36.9933679"
"02.06.2025";"139008";"Москва переулок Холодильный 3 (55.708394, 37.625397)";"Тульская";"Серф Кофе ИП Бессарабенко В Д";"Николаев 02.06.2025";"заявки евромост";"https://durnovcev2000.kaiten.ru/49757685";"55.7090134";"37.6246878"
"02.06.2025";"138757";"Москва м о Южнопортовый проспект Волгоградский 32 к 8 (55.723475, 37.689824)";"Волгоградский проспект";"Хостел Волгоградский уют ИП Абдуллаев И Х";"Новгородцев 02.06.2025";"заявки евромост";"https://durnovcev2000.kaiten.ru/46273267";"55.7238595";"37.6884055"
"02.06.2025";"134661";"Москва ул Свободы 24/9";"Тушинская";"ПВЗ Яндекс Маркет ИП Беккер И В";"Кадамшоев 02.06.2025";"заявки евромост";"https://durnovcev2000.kaiten.ru/45786039";"55.8343429";"37.4543487"
"02.06.2025";"134112";"Москва Складочная 1 стр 9";"Дмитровская";"Офис компании Роботизированые Технологии ООО КБРТ";"Николаев 02.06.2025";"заявки евромост";"https://durnovcev2000.kaiten.ru/29793196";"55.803383";"37.593883"
"02.06.2025";"139257";"МО г о Солнечногорск д Чашниково стр 012 М (56.029964, 37.172385)";"Солнечногорск";"Дом Табака ИП Харитонова О Е";"Дурновцев 02.06.2025";"заявки евромост";"https://durnovcev2000.kaiten.ru/49755661";"56.19091299999999";"36.9721914"
"02.06.2025";"139256";"МО г о Солнечногорск пгт Ржавки рядом с д 2 А (56.013090, 37.221325)";"Солнечногорск";"Дом Табака ИП Харитонова О Е";"Дурновцев 02.06.2025";"заявки евромост";"https://durnovcev2000.kaiten.ru/49756050";"56.19091299999999";"36.9721914"
"02.06.2025";"139258";"МО г Солнечногорск ул Обуховская 5 М (56.184150, 36.968629)";"Солнечногорск";"Дом Табака ИП Оганнисян А А";"Дурновцев 02.06.2025";"заявки евромост";"https://durnovcev2000.kaiten.ru/49756310";"-";"-"
"02.06.2025";"91915";"Москва ул Болотниковская 31 корпус 1";"Каховская";"Салон красоты ООО Бистро 317";"Николаев 02.06.2025";"заявки евромост";"https://durnovcev2000.kaiten.ru/33153591";"55.6590065";"37.59162000000001"
"02.06.2025";"138035";"Москва ул Красная Пресня 46 стр 1";"Улица 1905 года";"Магазин табака и курительных принадлежностей МосТабак ИП Алексеенко В И";"Кадамшоев 02.06.2025";"заявки евромост";"https://durnovcev2000.kaiten.ru/36805121";"55.76294559999999";"37.5645308"
"02.06.2025";"138252";"МО г Балашиха Московский бульвар 11";"Балашиха";"Аптека Планета Здоровья ООО Лето";"Терехов 02.06.2025";"-";"https://durnovcev2000.kaiten.ru/38987505";"55.8262306";"37.9560778"
"02.06.2025";"93270";"Москва Волгоградский проспект 32 корп 2";"Волгоградский проспект";"Профиль Шинный центр ИП Ларионова Э В";"Новгородцев 02.06.2025";"-";"https://durnovcev2000.kaiten.ru/33172951";"55.7239106";"37.6900806"
