"Дата заявки";"Пультовый номер";"Адрес";"Округ";"Наименование";"Техник/дата";"таблица";"ссылка";"latitude";"longitude"
"26.03.2025";"1647";"Москва г, вн.тер.г. муниципальный округ Хорошево-Мневники, пр-кт Маршала Жукова, д. 2, к. 2, стр. 1";"Хорошёво";"Склад кабинет 112";"Аракелян 26.03.2025";"демонтаж";"https://durnovcev2000.kaiten.ru/33128296";"55.7779119";"37.5049359"
"26.03.2025";"130370";"Москва г, , Симферопольский бульвар,, д. 19, к. 2";"Севастопольская";" Жилое помещение ";"Шатохин 26.03.2025";"демонтаж";"https://durnovcev2000.kaiten.ru/";"55.65109649999999";"37.6072089"
"26.03.2025";"-";" г. Москва ул Чертановская 47";"Пражская";"ИП Морозова А.Г ";"Шатохин 26.03.2025";"обследования";"-";"55.6052724";"37.5908155"
"26.03.2025";"-";"МО, г. Красноармейск, ул. Краснофлотская, д.2В ТЦ";"Красноармейск";"аптека планета здоровья";"Ковалев 26.03.2025";"обследования";"-";"56.1004043";"38.1210042"
"11.03.2025";"нет";"Москва, Шмитовский проезд, д. 3, стр. 1, эт. 2";"Улица 1905 года";"Институт репродуктивной медицины ""REMEDI""";"Новгородцев 26.03.2025";"ремонт фзч";"https://durnovcev2000.kaiten.ru/33128301";"55.7582278";"37.5555547"
"25.03.2025";"-";" г. Москва, 1-й Нагатинский проезд, 11, корп. 2";"Нагатинская";"Аптека ";"Шатохин 26.03.2025";"ремонт фзч";"-";"55.6775484";"37.6345009"
"25.03.2025";"-";" г. Москва, ул. Люблинская, 175";"Марьино";"Аптека ";"Канаев 26.03.2025";"ремонт фзч";"-";"55.64600850000001";"37.7473634"
"25.03.2025";"-";"г. Москва, Зелёный проспект, 60/35, пом. 326";"Новогиреево";"Аптека ";"Клюев 26.03.2025";"ремонт фзч";"-";"55.7508201";"37.8195748"
"25.03.2025";"-";"г. Москва, Лермонтовский пр-кт, 8, корп. 1";"Лермонтовский проспект";"Аптека ";"Николаев 26.03.2025";"ремонт фзч";"-";"55.7012927";"37.8501659"
"25.03.2025";"-";"г. Москва, ул. Красного Маяка, 2";"Пражская";"Аптека ";"Шатохин 26.03.2025";"ремонт фзч";"-";"55.61180700000001";"37.601814"
"25.03.2025";"-";"г. Москва, ул. Первомайская, 80";"Первомайская";"Аптека ";"Николаев 26.03.2025";"ремонт фзч";"-";"55.7929355";"37.8029218"
"25.03.2025";"-";" г. Москва, ул. Туристская, 19, корп. 1";"Сходненская";"Аптека ";"Новгородцев 26.03.2025";"ремонт фзч";"-";"55.8522585";"37.4213245"
"25.03.2025";"136201";"Москва г, вн.тер.г. муниципальный округ Тропарево-Никулино, ул Покрышкина, д. 1, к. 1, этаж 1, помещ. XII";"Юго-Западная";" (Клиника Анатомия)";"Аракелян 26.03.2025";"ремонт фзч";"https://durnovcev2000.kaiten.ru/33153782";"55.6631273";"37.478686"
"25.03.2025";"138523";" Москва г, вн.тер.г. муниципальный округ Мещанский, ул Кузнецкий Мост, д. 21/5";"Кузнецкий Мост";"(Балетный магазин)";"Новгородцев 26.03.2025";"ремонт фзч";"https://durnovcev2000.kaiten.ru/42510527";"55.7625946";"37.62712490000001"
"25.03.2025";"137261";"Москва г, вн.тер.г. муниципальный округ Бабушкинский, ул Менжинского, д. 21, помещ. 9/1";"Бабушкинская";"продуктовый магазин «Белорусский хуторок»)";"Ковалев 26.03.2025";"ремонт фзч";"https://durnovcev2000.kaiten.ru/33163089";"55.868801";"37.6674748"
"25.03.2025";"-";"Москва, ул. Большая Якиманка, дом 50";"Октябрьская";"Кальянная ""Мята Platinum"" / ООО ""ХУККА""";"Новгородцев 26.03.2025";"ремонт фзч";"-";"55.7320876";"37.611728"
"25.03.2025";"91950";"МО г Реутов Носовихинское шоссе 21 В";"реутов";"Пекарня Хлебница ИП Данилов А Н";"Клюев 26.03.2025";"заявки евромост";"https://durnovcev2000.kaiten.ru/33261660";"55.7476406";"37.8734213"
"26.03.2025";"93155";"г.Москва,Шипиловский пр-д д.61 кор.1";"Домодедовская";"ООО ""ТЕХНОСТАНДАРТ"" Магазин ""ПРОДУКТЫ 8-23""";"Канаев 26.03.2025";"заявки евромост";"https://durnovcev2000.kaiten.ru/33147453";"55.603253";"37.708137"
"26.03.2025";"136550";"Москва ул Малая Полянка 12 А";"Полянка";"Стоматология доктора Кардаковой ООО Кардакова Дент";"Шатохин 26.03.2025";"заявки евромост";"https://durnovcev2000.kaiten.ru/33165245";"55.734146";"37.6158019"
"26.03.2025";"83453";"Москва Новинский бульвар 8 в ТЦ Арбат Лотте Плаза";"Смоленская";"ЗАО УРИ БАНК";"Николаев 26.03.2025";"заявки евромост";"https://durnovcev2000.kaiten.ru/32562658";"55.75131349999999";"37.5841183"
"26.03.2025";"90717";"Москва ул Малая Филевская 54";"Кунцевская";"Аптека Планета Здоровья ООО Парацельс";"Николаев 26.03.2025";"заявки евромост";"https://durnovcev2000.kaiten.ru/33682105";"55.733748";"37.449879"
"26.03.2025";"132566";"МО г Люберцы пос Калинина ул Колхозная 10 цокольный этаж			";"Люберцы";"Офис склад ИП Арутюнян Э Н";"Претека 26.03.2025";"заявки евромост";"https://durnovcev2000.kaiten.ru/34004429";"55.64351389999999";"37.9494022"
"26.03.2025";"134888";"Москва ул Совхозная 20			";"Люблино";"аптека ";"Канаев 26.03.2025";"заявки евромост";"https://durnovcev2000.kaiten.ru/33165520";"55.6807105";"37.7644932"
"26.03.2025";"134907";"Москва проспект Мира 79			";"Рижская";"Офисное помещение ИП Козлов А В";"Коновалов 26.03.2025";"заявки евромост";"https://durnovcev2000.kaiten.ru/46424408";"55.79071159999999";"37.6341264"
"26.03.2025";"132726";"Москва ул Гурьянова 4 к 1			";"Печатники";"Стоматология ООО Альтернатива";"Коновалов 26.03.2025";"заявки евромост";"https://durnovcev2000.kaiten.ru/33173883";"55.6916817";"37.7212831"
"26.03.2025";"132557";"Москва г Щербинка ул Железнодорожная 15 строение 1			";"Улица Горчакова";"Храм иконы БМ Всецарица МРО Православный приход храма св прмц вел кн Елисаветы в Щербинке г Москвы Московской епархии РПЦ МП        ";"Даниелян 26.03.2025";"заявки евромост";"https://durnovcev2000.kaiten.ru/32511329";"55.5097423";"37.5636088"
"26.03.2025";"136985";"Москва МКАД 41 й километр В22/3 ТОГК Славянский мир";"Алма-Атинская";"Склад ИП Ахунова М С";"Даниелян 26.03.2025";"заявки евромост";"https://durnovcev2000.kaiten.ru/47342363";"55.644667";"37.8213621"
"26.03.2025";"136977";"Москва ул Усачева 62 вход со двора";"Спортивная";"Собакин Шоп энд Грум ИП Николаенко Е В";"Аракелян 26.03.2025";"заявки евромост";"https://durnovcev2000.kaiten.ru/33160583";"55.724875";"37.561883"
